"id","name","arabicName","era","tourismType","placeType","city","shortDescription","latitude","longitude","imageUrl","isUnlocked","estimatedDuration","bestTimeToVisit"
"giza","Pyramids of Giza","أهرامات الجيزة","Old Kingdom","Pharaonic","Pyramid","Giza","The last surviving wonder of the ancient world.","29.9792","31.1342","","TRUE","3-4 hours","Early morning (8-10 AM) or late afternoon"
"luxor","Luxor Temple","معبد الأقصر","New Kingdom","Pharaonic","Temple","Luxor","A stunning temple in the heart of modern Luxor, beautiful at night.","25.6996","32.639","","TRUE","2-3 hours","Evening visit recommended - beautifully lit at night"
"valley_kings","Valley of the Kings","وادي الملوك","New Kingdom","Pharaonic","Tomb","Luxor","The hidden burial ground of Egypt's greatest pharaohs.","25.7402","32.6014","","TRUE","3-4 hours","Early morning (6-8 AM) before the heat"
"karnak","Karnak Temple Complex","معابد الكرنك","New Kingdom","Pharaonic","Temple","Luxor","The largest ancient religious complex ever built.","25.7188","32.6573","","TRUE","3-4 hours","Early morning or evening Sound & Light show"
"abu_simbel","Abu Simbel","أبو سمبل","New Kingdom","Pharaonic","Temple","Aswan","Test Test Test","22.3372","31.6258","","TRUE","2-3 hours","Feb 22 or Oct 22 for the sun festival"